City_ID,City,Lat,Lng,Max Temp,Humidity,Cloudiness,Wind Speed,Country,Date
0,margaret river,-33.95,115.0667,10.91,64,5,3.24,AU,1691530329
1,grytviken,-54.2811,-36.5092,-3.43,80,31,3.76,GS,1691530329
2,port-aux-francais,-49.35,70.2167,1.05,69,94,9.67,TF,1691530329
3,udachny,66.4167,112.4,15.25,67,10,1.81,RU,1691530330
4,tiksi,71.6872,128.8694,15.04,53,9,1.47,RU,1691530330
5,bilibino,68.0546,166.4372,4.58,64,100,2.89,RU,1691530330
6,weno,7.4515,151.8468,27.97,89,100,1.54,FM,1691530331
7,ciudad lazaro cardenas,17.9583,-102.2,31.78,70,2,5.65,MX,1691530331
8,west island,-12.1568,96.8225,24.99,83,75,5.14,CC,1691530331
9,leava,-14.3,-178.1667,27.43,73,28,0.81,WF,1691530331
10,blackmans bay,-43.0167,147.3167,3.07,94,39,2.98,AU,1691530332
11,albany,42.6001,-73.9662,22.96,86,82,1.34,US,1691530201
12,port mathurin,-19.6833,63.4167,22.44,65,14,9.9,MU,1691530332
13,khromtau,50.2503,58.4347,18.51,68,31,3.3,KZ,1691530333
14,puerto ayora,-0.7393,-90.3518,28.98,86,58,3.13,EC,1691530333
15,puerto natales,-51.7236,-72.4875,1.64,99,100,0.92,CL,1691530333
16,akcakale,36.7111,38.9475,29.39,48,0,3.65,TR,1691530334
17,port lincoln,-34.7333,135.8667,12.4,44,0,8.99,AU,1691530334
18,pingliang,35.5392,106.6861,20.44,96,95,2.88,CN,1691530334
19,jamestown,42.097,-79.2353,23.07,71,40,7.2,US,1691530050
20,alaghsas,17.0187,8.0168,27.42,63,93,4.99,NE,1691530335
21,dudinka,69.4058,86.1778,15.81,64,71,1.04,RU,1691530335
22,olonkinbyen,70.9221,-8.7187,4.59,92,100,7.48,SJ,1691530335
23,port douglas,-16.4833,145.4667,20.67,79,83,5.24,AU,1691530336
24,college,64.8569,-147.8028,21.22,80,100,3.09,US,1691530336
25,waitangi,-43.9535,-176.5597,8.23,95,100,0.45,NZ,1691530336
26,tazacorte,28.629,-17.9293,23.42,90,0,1.03,ES,1691530337
27,fale old settlement,-9.3852,-171.2468,27.95,76,94,5.41,TK,1691530337
28,adamstown,-25.066,-130.1015,22.34,87,92,15.35,PN,1691530337
29,aasiaat,68.7098,-52.8699,4.52,70,50,1.84,GL,1691530337
30,beyneu,45.3167,55.2,29.18,34,0,3.61,KZ,1691530338
31,santa terezinha,-29.9002,-50.0904,16.04,69,100,7.69,BR,1691530338
32,tabou,4.423,-7.3528,24.42,88,97,5.79,CI,1691530339
33,edinburgh of the seven seas,-37.0676,-12.3116,12.18,90,100,12.77,SH,1691530339
34,mount gambier,-37.8333,140.7667,6.6,69,0,4.83,AU,1691530340
35,quatre cocos,-20.2078,57.7625,22.27,68,27,5.78,MU,1691530341
36,iqaluit,63.7506,-68.5145,5.85,86,75,4.12,CA,1691530219
37,utrik,11.2278,169.8474,28.43,73,59,6.17,MH,1691530342
38,talnakh,69.4865,88.3972,16.73,62,94,1.03,RU,1691530343
39,sirte,31.2089,16.5887,25.84,68,0,4.31,LY,1691530343
40,egilsstadir,65.2653,-14.3948,7.95,76,20,5.14,IS,1691530343
41,fort st. john,56.2499,-120.8529,20.94,60,75,3.6,CA,1691530343
42,youkounkoun,12.5333,-13.1333,25.5,92,77,1.18,GN,1691530344
43,port elizabeth,-33.918,25.5701,15.16,94,75,3.6,ZA,1691530344
44,hamilton,39.1834,-84.5333,28.76,54,75,4.12,US,1691529748
45,iskateley,67.6803,53.1512,9.52,74,87,0.67,RU,1691530345
46,hilo,19.7297,-155.09,29.04,58,0,4.12,US,1691530345
47,longyearbyen,78.2186,15.6401,8.91,71,0,4.12,SJ,1691530346
48,oranjemund,-28.55,16.4333,12.37,92,3,5.16,NA,1691530346
49,hermanus,-34.4187,19.2345,11.56,82,0,5.32,ZA,1691530346
50,jinghong,21.991,100.7341,22.79,100,100,0.71,CN,1691530347
51,itaituba,-4.2761,-55.9836,33.09,62,20,1.54,BR,1691530347
52,enriquillo,17.9,-71.2333,34.82,73,0,3.9,DO,1691530347
53,al kharijah,25.4514,30.5464,34.87,28,1,7.6,EG,1691530348
54,smithers,54.7804,-127.1743,19.18,68,75,2.57,CA,1691530348
55,behshahr,36.6923,53.5526,26.48,64,2,0.94,IR,1691530348
56,ushuaia,-54.8,-68.3,3.81,75,40,1.03,AR,1691530141
57,greymouth,-42.4667,171.2,5.89,78,69,2.75,NZ,1691530349
58,punta arenas,-53.15,-70.9167,1.56,85,88,2.23,CL,1691530349
59,ust-nera,64.5667,143.2,14.53,55,84,0.96,RU,1691530350
60,panaba,21.2833,-88.2667,34.85,47,9,9.72,MX,1691530350
61,avarua,-21.2078,-159.775,23.03,60,20,3.6,CK,1691530350
62,stanley,54.868,-1.6985,12.81,72,0,3.09,GB,1691530321
63,tura,25.5198,90.2201,23.3,98,100,2.31,IN,1691530351
64,pimentel,-6.8367,-79.9342,24.16,69,40,8.23,PE,1691530351
65,isafjordur,66.0755,-23.124,10.98,60,24,1.17,IS,1691530352
66,georgetown,5.4112,100.3354,26.64,95,20,1.54,MY,1691530313
67,changyon,38.2508,125.0961,24.4,89,1,1.83,KP,1691530352
68,bethel,41.3712,-73.414,26.05,64,40,5.14,US,1691530352
69,nova sintra,14.8667,-24.7167,22.62,74,46,6.29,CV,1691530353
70,yellowknife,62.456,-114.3525,21.29,46,20,7.72,CA,1691530353
71,mala,-12.6581,-76.6308,19.85,78,50,3.89,PE,1691530353
72,mount pearl,47.5166,-52.7813,14.69,84,75,3.6,CA,1691530354
73,sitka,57.0531,-135.33,14.94,82,100,4.63,US,1691530355
74,thompson,55.7435,-97.8558,14.09,82,100,4.63,CA,1691530355
75,callao,-12.0667,-77.15,22.16,68,20,6.69,PE,1691530356
76,lihue,21.9789,-159.3672,32.58,68,40,7.2,US,1691530356
77,toliara,-23.35,43.6667,20.35,85,54,2.51,MG,1691530356
78,east london,-33.0153,27.9116,17.42,76,100,5.15,ZA,1691530356
79,mejit,10.2753,170.8646,28.27,73,85,6.37,MH,1691530357
80,bredasdorp,-34.5322,20.0403,9.18,88,0,1.47,ZA,1691530357
81,bubaque,11.2833,-15.8333,27.27,88,74,5.99,GW,1691530357
82,nouadhibou,20.931,-17.0347,21.99,88,0,6.69,MR,1691530357
83,saint-joseph,-21.3667,55.6167,18.21,76,33,3.31,RE,1691530358
84,kodiak,57.79,-152.4072,13.73,88,75,2.06,US,1691530358
85,kimbe,-5.5502,150.1429,26.61,70,84,4.83,PG,1691530358
86,holualoa,19.6228,-155.9522,28.91,62,0,6.17,US,1691530358
87,marat,25.0701,45.4615,30.85,7,1,3.63,SA,1691530359
88,ciudad choluteca,13.3003,-87.1908,34.79,41,95,2.36,HN,1691530359
89,chui,-33.6971,-53.4616,10.62,81,73,3.31,UY,1691530359
90,invercargill,-46.4,168.35,5.57,92,94,6.26,NZ,1691530359
91,eureka,40.8021,-124.1637,31.48,77,88,2.24,US,1691530088
92,almeria,37.1667,-2.3333,26.35,56,12,1.2,ES,1691530360
93,niamey,13.5137,2.1098,29.16,65,0,2.06,NE,1691530360
94,port saint john's,-31.6229,29.5448,18.26,72,92,4.54,ZA,1691530360
95,sai buri,6.7013,101.6168,26.65,87,99,1.58,TH,1691530361
96,batyrevo,55.0675,47.6111,17.31,65,0,2.33,RU,1691530361
97,dwarka,22.2394,68.9678,27.16,81,100,9.28,IN,1691530361
98,borda da mata,-22.2742,-46.1653,18.94,70,72,2.61,BR,1691530362
99,atafu village,-8.5421,-172.5159,28.66,69,90,5.4,TK,1691530362
100,vila velha,-20.3297,-40.2925,23.97,88,20,6.69,BR,1691530362
101,embrun,44.5639,6.4953,15.1,56,74,0.39,FR,1691530362
102,cabo san lucas,22.8909,-109.9124,37.56,41,20,7.72,MX,1691530155
103,enewetak,11.3474,162.3373,28.67,76,98,7.08,MH,1691530363
104,qaqortoq,60.7167,-46.0333,5.89,85,9,2.43,GL,1691530363
105,whitehorse,60.7161,-135.0538,17.43,67,75,5.66,CA,1691530364
106,bardai,11.65,7.2333,21.78,91,99,3.44,NG,1691530364
107,hailar,49.2,119.7,13.04,86,8,1.58,CN,1691530364
108,zhaozhou,45.6833,125.3167,17.98,96,92,3.2,CN,1691530365
109,at taj,24.2049,23.2857,28.81,31,0,4.93,LY,1691530365
110,olyokminsk,60.3736,120.4264,17.61,78,66,1.81,RU,1691530365
111,arraial do cabo,-22.9661,-42.0278,21.92,83,100,4.63,BR,1691530366
112,vadso,70.0744,29.7487,21.49,88,0,2.06,NO,1691530366
113,den helder,52.9599,4.7593,15.99,77,75,3.13,NL,1691530367
114,minas de marcona,-15.2119,-75.1103,15.56,71,3,5.97,PE,1691530367
115,yeppoon,-23.1333,150.7333,14.88,81,24,5.88,AU,1691530367
116,petropavlovsk-kamchatsky,53.0452,158.6483,11.33,87,20,3.0,RU,1691530368
117,wiesenburg,52.1167,12.45,14.6,86,85,4.42,DE,1691530368
118,ash shihaniyah,25.3686,51.2264,34.79,24,0,1.3,QA,1691530368
119,zhob,31.3411,69.4481,27.93,39,0,0.99,PK,1691530369
120,tutoia,-2.7619,-42.2744,26.51,82,35,6.4,BR,1691530322
121,rongelap,11.1635,166.8941,28.38,74,45,6.49,MH,1691530369
122,saint-philippe,-21.3585,55.7679,18.77,78,37,3.28,RE,1691530369
123,paramonga,-10.6667,-77.8333,20.24,77,15,5.36,PE,1691530370
124,charters towers,-20.1,146.2667,15.59,69,28,2.74,AU,1691530370
125,burang,30.25,81.1667,11.84,75,98,1.89,CN,1691530370
126,port alfred,-33.5906,26.891,14.54,97,81,0.45,ZA,1691530370
127,san antonio de pale,-1.4014,5.6325,23.7,77,2,5.58,GQ,1691530371
128,crane,31.3974,-102.3501,39.39,18,96,2.76,US,1691530371
129,metlili chaamba,32.2667,3.6333,35.52,12,0,2.06,DZ,1691530371
130,sisimiut,66.9395,-53.6735,8.25,62,9,2.62,GL,1691530372
131,santa vitoria,-18.8386,-50.1214,27.53,27,0,1.03,BR,1691530372
132,lompoc,34.6391,-120.4579,25.47,72,75,3.09,US,1691530372
133,harper,4.375,-7.7169,24.47,88,99,6.18,LR,1691530373
134,afaahiti,-17.75,-149.2833,23.93,88,98,6.56,PF,1691530373
135,codrington,-38.2667,141.9667,7.2,78,26,6.59,AU,1691530373
136,bodo,67.28,14.405,21.92,71,20,6.71,NO,1691530373
137,klyuchi,52.2667,79.1667,18.37,46,42,0.72,RU,1691530374
138,carros,43.7894,7.184,19.84,70,75,1.03,FR,1691530374
139,hawaiian paradise park,19.5933,-154.9731,28.73,79,0,4.12,US,1691530374
140,charlottetown,46.2352,-63.1267,22.29,67,40,5.66,CA,1691530028
141,gedo,9.0167,37.45,10.94,98,100,1.06,ET,1691530375
142,lebu,-37.6167,-73.65,12.3,70,100,3.78,CL,1691530375
143,qarauyl,48.9451,79.255,18.2,76,99,2.5,KZ,1691530155
144,qina,26.1642,32.7267,35.24,26,0,6.28,EG,1691530375
145,camana,-16.6228,-72.7111,18.62,78,8,3.38,PE,1691530376
146,kununurra,-15.7667,128.7333,13.99,72,16,2.57,AU,1691530376
147,pakuranga,-36.8833,174.9167,14.0,72,75,4.63,NZ,1691530377
148,laguna,38.421,-121.4238,35.17,39,0,5.66,US,1691530377
149,howrah,22.5892,88.3103,27.0,94,75,1.54,IN,1691530377
150,puerto rosario,-24.45,-57.0833,24.94,62,100,3.44,PY,1691530377
151,anadyr,64.75,177.4833,10.28,81,75,8.0,RU,1691530378
152,ribeira grande,38.5167,-28.7,24.32,88,40,9.39,PT,1691530378
153,sao vicente,-23.9631,-46.3919,22.1,62,100,4.12,BR,1691530379
154,guerrero negro,27.9769,-114.0611,29.15,60,91,7.03,MX,1691530379
155,krasnokamensk,50.0979,118.0369,14.13,78,9,1.67,RU,1691530379
156,coquimbo,-29.9533,-71.3436,15.85,77,75,2.57,CL,1691530207
157,liboro,13.8245,122.7295,26.88,87,56,2.86,PH,1691530380
158,villa ojo de agua,-29.5,-63.6938,10.86,58,75,4.49,AR,1691530380
159,barkot,30.8167,78.2,21.32,95,100,0.85,IN,1691530380
160,itoman,26.1247,127.6694,27.43,91,75,5.66,JP,1691530381
161,griffith,41.5284,-87.4237,28.3,53,75,5.14,US,1691530381
162,agat village,13.3886,144.6585,27.52,94,75,1.54,GU,1691530381
163,pailin,12.849,102.6093,22.75,95,95,1.76,KH,1691530382
164,wailua homesteads,22.0669,-159.378,32.24,75,100,7.72,US,1691530382
165,merizo village,13.2658,144.6691,27.31,97,100,6.21,GU,1691530382
166,aykhal,66.0,111.5,17.0,62,11,2.62,RU,1691530383
167,broken hill,-31.95,141.4333,9.98,56,6,4.1,AU,1691530289
168,guercif,34.2257,-3.3536,31.32,40,93,2.54,MA,1691530383
169,ta`u,-14.2336,-169.5144,27.68,69,88,4.76,AS,1691530384
170,touros,-5.1989,-35.4608,24.53,83,92,5.05,BR,1691530384
171,anjar,23.1333,70.0167,26.81,80,100,8.3,IN,1691530384
172,russellville,35.2784,-93.1338,30.66,61,0,3.6,US,1691530334
173,magong,23.5654,119.5863,27.69,88,100,5.6,TW,1691530385
174,tinogasta,-28.0632,-67.5649,15.83,34,1,2.41,AR,1691530385
175,tazovsky,67.4667,78.7,8.76,97,100,4.32,RU,1691530385
176,keflavik,64.0049,-22.5624,12.95,87,40,4.63,IS,1691530385
177,kerikeri,-35.2268,173.9474,9.39,94,21,0.45,NZ,1691530385
178,kristiansund,63.1115,7.732,13.03,94,100,1.54,NO,1691530386
179,jamaame,0.0697,42.745,23.66,84,34,4.96,SO,1691530386
180,rokytne,51.2796,27.214,11.63,79,11,2.76,UA,1691530386
181,carbonear,47.7332,-53.2148,15.41,84,100,3.84,CA,1691530386
182,richards bay,-28.783,32.0377,17.17,86,0,1.96,ZA,1691530387
183,tindouf,27.6711,-8.1474,41.25,11,20,2.57,DZ,1691530387
184,inirida,3.8653,-67.9239,29.4,74,29,0.85,CO,1691530387
185,turkmenbasy,40.0222,52.9552,26.43,31,0,1.03,TM,1691530388
186,novodvinsk,64.4165,40.8122,13.72,92,6,2.26,RU,1691530388
187,san patricio,28.017,-97.5169,38.4,48,0,8.97,US,1691530388
188,puerto baquerizo moreno,-0.9,-89.6,26.55,69,75,5.14,EC,1691530389
189,kavaratti,10.5669,72.642,27.98,75,100,7.7,IN,1691530389
190,sambava,-14.2667,50.1667,20.34,89,12,3.48,MG,1691530389
191,ilulissat,69.2167,-51.1,6.62,56,100,1.21,GL,1691530390
192,papatowai,-46.5619,169.4708,5.45,86,100,7.76,NZ,1691530390
193,constitucion,-35.3333,-72.4167,12.7,69,100,1.78,CL,1691530391
194,sapele,5.8941,5.6767,23.96,90,38,1.46,NG,1691530391
195,carnarvon,-24.8667,113.6333,17.1,84,5,6.54,AU,1691530391
196,rundu,-17.9333,19.7667,16.08,38,36,2.76,NA,1691530392
197,narrabri,-30.3167,149.7833,8.62,80,0,1.34,AU,1691530392
198,kokopo,-4.352,152.2633,26.13,81,60,7.05,PG,1691530392
199,castelo branco,39.8222,-7.4909,30.56,31,0,2.29,PT,1691530392
200,tolanaro,-25.0319,46.9987,20.04,88,20,5.14,MG,1691530393
201,jwaneng,-24.6004,24.7303,11.7,25,25,4.07,BW,1691530393
202,balad,34.0164,44.1453,36.7,15,0,4.94,IQ,1691530394
203,xinyuan,37.3,99.0,11.49,73,97,1.29,CN,1691530394
204,nyurba,63.2842,118.3319,16.31,60,0,2.9,RU,1691530394
205,bridgetown,13.1,-59.6167,29.27,84,20,4.63,BB,1691530395
206,as sulayyil,20.4607,45.5779,33.14,9,7,3.05,SA,1691530395
207,constantia,44.1833,28.65,14.38,66,46,3.79,RO,1691530396
208,kapuskasing,49.4169,-82.4331,26.05,50,75,3.09,CA,1691530396
209,lerwick,60.1545,-1.1494,10.0,79,100,13.8,GB,1691530396
210,zarinsk,53.7074,84.9493,15.05,56,53,1.2,RU,1691530397
211,ilhabela,-23.7781,-45.3581,19.72,93,100,4.28,BR,1691530397
212,qal'ah-ye shahr,35.5473,65.5676,12.92,51,1,0.79,AF,1691530397
213,ad dabbah,18.05,30.95,36.34,31,3,3.61,SD,1691530397
214,oliver,49.1831,-119.5524,28.8,44,96,2.57,CA,1691530398
215,dapa,9.7594,126.0531,27.94,73,100,1.65,PH,1691530398
216,kruisfontein,-34.0033,24.7314,13.27,88,90,0.3,ZA,1691530398
217,lepsy,46.235,78.9456,23.75,42,82,4.94,KZ,1691530399
218,quepos,9.4236,-84.1652,27.58,82,100,0.67,CR,1691530399
219,santa cruz,-17.8,-63.1667,28.03,32,0,5.66,BO,1691530399
220,la ronge,55.1001,-105.2842,18.12,59,75,4.63,CA,1691530170
221,sainte-anne-des-monts,49.124,-66.4924,15.93,88,100,1.54,CA,1691530400
222,chelmsford,51.7357,0.4696,16.81,95,100,2.75,GB,1691530400
223,tapa,59.2606,25.9586,11.67,88,1,2.64,EE,1691530400
224,buenaventura,3.8801,-77.0312,28.12,81,98,2.55,CO,1691530165
225,gourdon,44.75,1.5,15.45,47,66,0.64,FR,1691530401
226,fada n'gourma,12.0622,0.3578,24.91,84,100,2.42,BF,1691530401
227,new norfolk,-42.7826,147.0587,3.72,95,41,1.39,AU,1691530401
228,queenstown,-31.8976,26.8753,9.68,84,79,1.98,ZA,1691530402
229,nemuro,43.3236,145.575,18.33,100,100,5.59,JP,1691530402
230,taki,22.5861,88.9214,26.97,87,84,2.18,IN,1691530402
231,saldanha,-33.0117,17.9442,10.03,85,0,5.69,ZA,1691530403
232,springs,-26.25,28.4,13.01,50,4,2.58,ZA,1691530403
233,tsiombe,-25.3,45.4833,19.99,86,1,4.76,MG,1691530404
234,hadibu,12.65,54.0333,25.66,80,97,8.28,YE,1691530404
235,luderitz,-26.6481,15.1594,16.26,66,0,7.01,NA,1691530404
236,island harbour,50.724,-1.2758,17.31,94,100,1.34,GB,1691530405
237,tagab,34.855,69.6492,23.73,28,0,1.78,AF,1691530405
238,sanniquellie,7.3622,-8.7061,21.38,99,44,1.79,LR,1691530405
239,bonthe,7.5264,-12.505,25.35,88,76,4.19,SL,1691530405
240,grand baie,-20.0182,57.5802,22.47,70,2,1.79,MU,1691530406
241,morehead city,34.7229,-76.726,34.0,81,0,6.69,US,1691530406
242,paradip garh,20.3167,86.6167,27.76,74,100,3.78,IN,1691530406
243,formosa do rio preto,-11.0483,-45.1931,26.7,33,0,1.64,BR,1691530407
244,kudahuvadhoo,2.6708,72.8944,27.28,76,94,2.58,MV,1691530407
245,hammerfest,70.6634,23.6821,23.25,73,0,1.03,NO,1691530407
246,yigo village,13.5361,144.8886,26.62,93,40,4.63,GU,1691530407
247,shijiang,27.0819,110.7933,25.62,91,84,0.9,CN,1691530407
248,walvis bay,-22.9575,14.5053,14.53,77,5,2.57,NA,1691530408
249,guanica,17.9716,-66.908,28.88,72,12,4.35,PR,1691530409
250,angaur state,6.906,134.13,28.13,79,100,8.86,PW,1691530248
251,celestun,20.8667,-90.4,30.0,76,34,7.2,MX,1691530409
252,zapolyarnyy,69.4154,30.8136,20.6,85,1,3.31,RU,1691530410
253,ovalle,-30.5983,-71.2003,19.23,57,91,1.92,CL,1691530410
254,al jawf,29.5,38.75,28.07,17,0,3.66,SA,1691530410
255,starotitarovskaya,45.2136,37.1439,24.26,63,0,4.44,RU,1691530411
256,mil'kovo,55.6078,37.7956,21.3,77,77,2.99,RU,1691530231
257,happy valley-goose bay,53.3168,-60.3315,18.17,68,40,5.66,CA,1691530222
258,vilyuchinsk,52.9306,158.4028,12.15,55,53,2.03,RU,1691530411
259,phang nga,8.4509,98.5298,27.02,93,99,1.03,TH,1691530412
260,khandyga,62.6667,135.6,15.25,59,89,0.16,RU,1691530412
261,zhezqazghan,47.7833,67.7667,25.77,35,45,2.22,KZ,1691530412
262,broome,42.2506,-75.833,18.83,95,100,6.17,US,1691530357
263,segezha,63.7415,34.3222,16.89,82,3,4.2,RU,1691530413
264,campbellton,48.0075,-66.6727,16.25,99,100,4.82,CA,1691530414
265,sampit,-2.5333,112.95,21.86,92,71,1.22,ID,1691530414
266,viedma,-40.8135,-62.9967,12.36,36,6,6.76,AR,1691530333
267,nar'yan-mar,67.6713,53.087,9.6,74,84,0.72,RU,1691530414
268,saipan,15.1355,145.701,28.14,100,20,0.0,MP,1691530415
269,ayvacik,39.6011,26.4047,21.8,71,0,6.14,TR,1691530415
270,shalqar,47.8333,59.6,27.82,38,85,2.47,KZ,1691530416
271,bandarbeyla,9.4942,50.8122,23.75,84,55,13.16,SO,1691530416
272,antofagasta,-23.65,-70.4,17.6,74,15,4.26,CL,1691529964
273,ust-tsilma,65.441,52.1498,10.28,77,25,0.56,RU,1691530416
274,badger,64.8,-147.5333,21.18,83,100,2.57,US,1691530417
275,khowy,38.5503,44.9521,24.84,38,0,0.15,IR,1691530418
276,racine,42.7495,-88.0751,29.36,59,0,4.12,US,1691530397
277,antsiranana,-12.2787,49.2917,21.73,81,7,5.11,MG,1691530418
278,kourou,5.1552,-52.6478,29.03,84,80,3.94,GF,1691530218
279,kyren,51.6828,102.1408,17.43,97,100,1.08,RU,1691530419
280,soio,-6.1349,12.3689,21.67,88,0,2.91,AO,1691530419
281,tralee,52.2704,-9.7026,15.79,96,100,1.59,IE,1691530419
282,mount airy,36.4993,-80.6073,27.51,53,0,3.09,US,1691530051
283,beruwala,6.4788,79.9828,25.94,87,100,2.25,LK,1691530420
284,kzyltu,53.6364,72.3414,19.37,52,98,2.08,KZ,1691530420
285,yaren,-0.5472,166.916,27.85,71,96,2.5,NR,1691530420
286,bereznik,62.8551,42.7072,13.75,91,5,1.96,RU,1691530420
287,bundi,25.4417,75.6417,26.12,74,91,4.74,IN,1691530421
288,gabes,33.8815,10.0982,25.98,57,0,6.17,TN,1691530421
289,port sudan,19.6175,37.2164,34.32,32,0,2.71,SD,1691530421
290,korla,41.7597,86.1469,24.88,40,0,1.51,CN,1691530422
291,bucerias,20.75,-105.3333,33.88,75,75,3.6,MX,1691530241
292,yuzhno-kurilsk,44.0306,145.8556,17.97,100,100,2.97,RU,1691530422
293,praia da vitoria,38.7333,-27.0667,24.14,83,20,5.94,PT,1691530422
294,idabel,33.8957,-94.8263,27.97,69,0,2.57,US,1691530423
295,el bayadh,33.6832,1.0193,28.09,16,4,3.13,DZ,1691530423
296,tual,-5.6667,132.75,25.5,79,69,8.94,ID,1691530424
297,pangoa,-12.1167,-73.0,24.98,74,65,1.25,PE,1691530424
298,mount isa,-20.7333,139.5,7.87,81,6,0.0,AU,1691530247
299,aberdeen,57.1437,-2.0981,13.27,70,11,5.14,GB,1691529824
300,karratha,-20.7377,116.8463,20.55,38,0,3.86,AU,1691530425
301,santa eularia des riu,38.9846,1.5341,26.12,68,0,2.57,ES,1691530425
302,rio grande,-32.035,-52.0986,15.06,74,90,7.04,BR,1691530425
303,coahuayana de hidalgo,18.7,-103.6583,33.1,65,43,3.41,MX,1691530426
304,posto fiscal rolim de moura,-13.0833,-62.2667,30.84,32,0,0.81,BR,1691530426
305,kingston,17.997,-76.7936,32.53,76,20,9.77,JM,1691530149
306,vershino-darasunskiy,52.35,115.5167,13.08,67,10,0.42,RU,1691530426
307,wakkanai,45.4094,141.6739,18.94,98,100,3.58,JP,1691530427
308,akjoujt,19.6969,-14.4164,34.41,20,0,4.57,MR,1691530427
309,sur,22.5667,59.5289,30.76,58,3,5.01,OM,1691530427
310,chonchi,-42.6128,-73.8092,10.56,98,100,2.36,CL,1691530428
311,castillos,-34.1667,-53.8333,9.26,87,36,2.78,UY,1691530428
312,mont-dore,-22.2833,166.5833,20.56,99,65,3.94,NC,1691530428
313,verkhniy baskunchak,48.2256,46.7217,30.24,26,22,3.19,RU,1691530428
314,floro,61.5996,5.0328,11.09,93,100,7.2,NO,1691530429
315,newman,37.3138,-121.0208,36.14,20,0,4.02,US,1691530429
316,al wajh,26.2455,36.4525,31.97,43,0,1.54,SA,1691530429
317,salalah,17.0151,54.0924,26.05,94,100,3.09,OM,1691530430
318,portsmouth,50.799,-1.0913,17.73,94,100,2.68,GB,1691530430
319,necochea,-38.5473,-58.7368,7.13,73,88,4.76,AR,1691530430
320,cidade velha,14.9167,-23.6167,26.26,65,20,6.17,CV,1691530431
321,yelizovo,53.1873,158.3805,12.08,87,20,3.0,RU,1691530431
322,remire-montjoly,4.9167,-52.2667,29.02,74,0,4.12,GF,1691530431
323,camarinas,43.1311,-9.1817,21.63,70,0,2.34,ES,1691530431
324,andergrove,-21.0833,149.1833,18.11,83,12,6.83,AU,1691530432
325,zeya,53.75,127.2667,17.84,70,100,2.01,RU,1691530432
326,leeton,-34.5667,146.4,7.27,82,10,2.59,AU,1691530432
327,kargasok,59.0556,80.8572,14.29,72,95,2.95,RU,1691530433
328,kingsbridge,50.2845,-3.7764,16.98,87,99,4.51,GB,1691530433
329,la passe,45.5549,-0.8967,19.13,64,17,3.73,FR,1691530433
330,berdigestyakh,62.0989,126.6992,15.26,60,22,2.82,RU,1691530434
331,alameda,37.5999,-121.8844,33.12,46,0,4.63,US,1691530434
332,biloela,-24.4167,150.5,15.15,68,2,5.33,AU,1691530434
333,nadym,65.5333,72.5167,11.48,80,100,8.21,RU,1691530435
334,arauca,7.0847,-70.7591,33.98,59,20,0.0,CO,1691530215
335,ulaangom,49.9811,92.0667,17.19,86,100,3.05,MN,1691530435
336,moreira,41.056,-8.3894,22.99,86,0,0.9,PT,1691530435
337,pisco,-13.7,-76.2167,22.03,68,0,6.69,PE,1691530150
338,choyr,46.3611,108.3611,16.72,67,51,4.77,MN,1691530436
339,yarkovo,57.4028,67.0786,15.0,74,0,2.43,RU,1691530436
340,laja,-37.2667,-72.7,14.16,65,100,1.11,CL,1691530436
341,daru,-9.0763,143.2092,24.42,80,62,6.96,PG,1691530437
342,winkler,49.1817,-97.941,26.1,50,60,4.12,CA,1691530259
343,bathsheba,13.2167,-59.5167,29.34,84,20,4.63,BB,1691530437
344,churapcha,62.0025,132.4325,15.54,56,56,2.1,RU,1691530437
345,nikel,69.4128,30.222,21.1,83,2,2.89,RU,1691530438
346,tamanrasset,22.785,5.5228,30.95,29,100,8.23,DZ,1691530438
347,neftcala,39.3742,49.2472,27.74,69,0,2.95,AZ,1691530438
348,kipushi,-11.7667,27.2333,15.73,45,17,1.83,CD,1691530438
349,suva,-18.1416,178.4415,24.71,78,40,3.6,FJ,1691530439
350,severo-yeniseyskiy,60.3725,93.0408,9.64,97,66,1.89,RU,1691530439
351,grootfontein,-19.5667,18.1167,16.76,34,77,1.03,NA,1691530439
352,vilyuysk,63.7553,121.6247,15.24,51,12,3.08,RU,1691530439
353,tefe,-3.3542,-64.7114,34.06,46,20,3.09,BR,1691530440
354,mournies,35.4764,24.0092,27.13,83,0,0.0,GR,1691530440
355,hithadhoo,-0.6,73.0833,27.36,75,100,2.26,MV,1691530440
356,taulaga,-11.0553,-171.0883,27.65,73,30,4.59,AS,1691530440
357,tofol,5.3248,163.0078,27.57,81,100,8.14,FM,1691530441
358,igarka,67.4667,86.5833,15.02,63,89,3.11,RU,1691530441
359,civril,38.3014,29.7386,19.88,75,0,2.51,TR,1691530441
360,gniew,53.836,18.8231,13.29,85,85,5.59,PL,1691530442
361,selfoss,63.9331,-20.9971,11.69,83,79,0.76,IS,1691530442
362,beloyarskiy,63.7119,66.6722,14.36,73,98,2.92,RU,1691530442
363,ulsteinvik,62.3432,5.8487,14.31,96,99,3.13,NO,1691530443
364,port macquarie,-31.4333,152.9167,12.74,76,3,2.34,AU,1691530260
365,minab,27.1467,57.0801,32.71,68,1,0.61,IR,1691530443
366,revda,56.801,59.9303,14.14,96,4,1.62,RU,1691530443
367,brookings,44.3114,-96.7984,26.77,54,20,5.66,US,1691530206
368,piranhas,-16.4269,-51.8222,28.97,26,3,1.51,BR,1691530444
369,bengkulu,-3.8004,102.2655,23.52,93,42,2.42,ID,1691530444
370,peniche,39.3558,-9.3811,21.83,90,20,2.88,PT,1691530444
371,maumere,-8.6199,122.2111,23.41,70,84,1.95,ID,1691530445
372,miandrivazo,-19.5167,45.4667,19.27,71,11,0.32,MG,1691530445
373,mugia,43.1041,-9.2179,21.62,70,0,2.6,ES,1691530445
374,ar ruways,24.1103,52.7306,32.72,70,14,3.31,AE,1691530445
375,trairi,-3.2778,-39.2689,25.62,81,51,6.81,BR,1691530446
376,ascension,30.2169,-90.9001,36.82,66,0,0.0,US,1691530446
377,oroqen zizhiqi,50.5667,123.7167,13.8,97,100,1.59,CN,1691530446
378,st. john's,47.5649,-52.7093,15.15,84,75,3.6,CA,1691530184
379,atbara,17.7022,33.9864,34.82,35,76,4.85,SD,1691530447
380,ceerigaabo,10.6162,47.368,18.89,58,34,10.5,SO,1691530447
381,jeremie,18.65,-74.1167,30.07,75,80,1.5,HT,1691530448
382,kisangani,0.5167,25.2,21.51,97,93,0.95,CD,1691530448
383,courtenay,49.6866,-124.9936,22.79,75,100,4.63,CA,1691530177
384,soria,41.6667,-2.6667,22.14,53,0,2.23,ES,1691530449
385,adrar,20.5022,-10.0711,34.76,19,11,5.2,MR,1691530449
386,bria,6.5423,21.9863,20.62,97,67,1.35,CF,1691530199
387,mao,39.8885,4.2658,24.31,64,0,1.03,ES,1691530449
388,bikenibeu village,1.3673,173.1241,26.98,94,75,2.06,KI,1691530449
389,tiaret,35.371,1.317,29.69,12,0,2.06,DZ,1691530450
390,abaza,52.655,90.0928,16.57,77,100,1.45,RU,1691530450
391,gaomi,36.3833,119.7528,20.96,87,0,2.17,CN,1691530450
392,raja,8.4596,25.678,20.95,96,100,1.66,SS,1691530450
393,katsina-ala,7.1667,9.2833,23.38,91,62,2.9,NG,1691530451
394,christchurch,-43.5333,172.6333,5.74,81,14,1.03,NZ,1691529880
395,howard springs,-12.497,131.047,23.95,55,77,3.2,AU,1691530451
396,brooks,50.5834,-111.8851,27.99,36,100,2.57,CA,1691530451
397,hargeysa,9.56,44.065,22.72,49,37,10.59,SO,1691530311
398,kalaleh,37.3807,55.4916,27.78,61,0,3.09,IR,1691530452
399,rukungiri,-0.8411,29.9419,17.38,81,90,0.62,UG,1691530452
400,lisala,2.15,21.5167,21.37,91,27,0.87,CD,1691530452
401,vorgashor,67.5833,63.95,9.05,75,100,2.97,RU,1691530452
402,talodi,10.6325,30.3797,21.66,97,99,3.37,SD,1691530453
403,nuuk,64.1835,-51.7216,8.34,76,40,2.57,GL,1691530453
404,moses lake,47.1301,-119.2781,30.49,44,0,3.6,US,1691530401
405,wanning,18.8003,110.3967,27.21,78,61,3.83,CN,1691530454
406,ambon,-3.6954,128.1814,25.6,16,3,6.72,ID,1691530389
407,chulakkurgan,43.765,69.1814,23.76,42,17,0.49,KZ,1691530454
408,dunedin,-45.8742,170.5036,7.11,73,99,3.58,NZ,1691530213
409,ketchikan,55.3422,-131.6461,17.26,82,100,4.12,US,1691530455
410,pacific grove,36.6177,-121.9166,22.67,77,0,6.17,US,1691530455
411,zhelezinka,53.54,75.3072,20.48,44,86,2.16,KZ,1691530455
412,sao gabriel da cachoeira,-0.1303,-67.0892,28.54,72,76,1.68,BR,1691530265
413,canon city,38.441,-105.2424,35.09,15,0,4.12,US,1691530376
414,bel ombre,-4.6167,55.4167,25.91,78,20,4.12,SC,1691530457
415,miranda,3.2499,-76.2281,33.07,49,81,1.71,CO,1691530457
416,rajula,21.05,71.4333,26.41,80,100,5.43,IN,1691530457
417,oppdal,62.5943,9.6912,12.79,93,100,4.2,NO,1691530458
418,souda,35.4844,24.0744,24.63,83,0,0.0,GR,1691530458
419,mana,5.6592,-53.7767,26.19,85,89,3.91,GF,1691530458
420,atasu,48.6814,71.6433,20.96,63,33,1.4,KZ,1691530459
421,hasaki,35.7333,140.8333,27.39,93,100,5.84,JP,1691530459
422,port augusta,-32.5,137.7667,8.41,49,0,4.22,AU,1691530295
423,krasnoye-na-volge,57.5125,41.2419,18.59,71,8,4.32,RU,1691530460
424,vila franca do campo,37.7167,-25.4333,23.23,86,21,2.26,PT,1691530460
425,camabatela,-8.1881,15.375,17.44,64,6,2.14,AO,1691530460
426,hamina,60.5697,27.1979,14.6,79,0,4.53,FI,1691530461
427,rikaze,29.25,88.8833,14.0,63,97,1.24,CN,1691530461
428,malango,-2.9627,119.9001,17.26,97,33,0.99,ID,1691530461
429,krakeel,52.7215,6.52,13.82,91,98,3.36,NL,1691530462
430,abong mbang,3.9833,13.1833,20.07,98,99,1.17,CM,1691530462
431,monrovia,6.3005,-10.7969,24.87,90,66,4.93,LR,1691530462
432,geraldton,-28.7667,114.6,10.23,100,75,3.09,AU,1691530462
433,villa gesell,-37.2639,-56.973,8.92,82,75,5.53,AR,1691530218
434,qamdo,31.1667,97.2333,5.71,83,70,1.85,CN,1691530463
435,rosarito,32.3333,-117.0333,26.25,71,100,3.3,MX,1691530463
436,russkaya polyana,49.417,31.9201,14.85,94,100,4.71,UA,1691530464
437,palmer,42.1584,-72.3287,26.34,76,100,5.66,US,1691530455
438,katsuren-haebaru,26.3369,127.8719,27.43,95,100,5.66,JP,1691530464
439,kutum,14.2,24.6667,25.07,62,18,1.64,SD,1691530464
440,aripuana,-9.1667,-60.6333,30.86,40,36,1.3,BR,1691530465
441,capitao poco,-1.7464,-47.0594,24.38,95,75,2.52,BR,1691530465
442,looe,50.3578,-4.4542,17.07,93,98,4.12,GB,1691530465
443,sandnessjoen,66.0217,12.6316,22.06,46,40,7.2,NO,1691530185
444,port alberni,49.2413,-124.8028,22.11,61,95,1.34,CA,1691530466
445,taltal,-25.4,-70.4833,17.55,71,71,2.39,CL,1691530221
446,merritt island,28.5392,-80.672,37.34,70,40,4.12,US,1691530466
447,inarajan village,13.2736,144.7484,27.54,97,100,6.1,GU,1691530467
448,arish,31.1316,33.7984,26.15,71,0,2.44,EG,1691530467
449,fuyu,45.1833,124.8167,18.45,96,100,2.99,CN,1691530467
450,tonj,7.2737,28.6822,21.27,96,100,0.6,SS,1691530468
451,itamaraca,-7.7478,-34.8256,27.03,85,41,3.88,BR,1691530468
452,creston,41.0586,-94.3614,26.3,73,75,0.0,US,1691530468
453,pedro ii,-4.4247,-41.4586,26.35,32,28,2.29,BR,1691530469
454,mahajanga,-15.7167,46.3167,22.01,88,20,0.51,MG,1691530469
455,brak,27.5496,14.2714,29.46,27,0,4.74,LY,1691530469
456,hirara,24.8,125.2833,27.92,94,40,2.57,JP,1691530469
457,aydarken,39.9443,71.3429,16.42,54,5,2.52,KG,1691530470
458,dryden,49.7833,-92.7503,20.16,73,75,3.09,CA,1691530470
459,lynnfield,42.539,-71.0481,28.06,80,0,5.14,US,1691530470
460,okhotsk,59.3833,143.3,15.23,59,7,2.91,RU,1691530471
461,miri,4.4148,114.0089,25.08,94,20,1.03,MY,1691530471
462,sayalkudi,9.1833,78.45,28.47,68,100,2.08,IN,1691530471
463,porto novo,6.4965,2.6036,24.68,88,22,3.61,BJ,1691530471
464,saskatoon,52.1168,-106.6345,21.99,37,75,2.57,CA,1691530424
465,narsimhapur,22.95,79.2,24.74,84,100,4.4,IN,1691530472
466,natal,-5.795,-35.2094,26.12,83,40,4.12,BR,1691530185
467,demidov,55.2706,31.515,13.34,87,92,1.79,RU,1691530473
468,gisborne,-38.6533,178.0042,8.17,75,6,1.99,NZ,1691530292
469,kindu,-2.95,25.95,22.32,87,85,1.73,CD,1691530473
470,yendi,9.4427,-0.0099,23.45,95,100,2.41,GH,1691530474
471,satkhira,22.7167,89.1,25.99,88,86,2.32,BD,1691530474
472,panshan,41.1881,122.0494,20.01,90,6,3.96,CN,1691530474
473,pacocha,-17.5833,-71.3333,20.08,73,75,5.14,PE,1691530474
474,mtimbira,-8.7833,36.35,19.98,62,2,1.11,TZ,1691530475
475,tak,16.5833,98.8333,19.77,99,100,1.45,TH,1691530475
476,hualien city,23.9769,121.6044,27.7,79,86,1.56,TW,1691530475
477,haiku-pauwela,20.9219,-156.3051,30.01,54,20,10.29,US,1691530475
478,mont-tremblant,46.1949,-74.6264,19.65,94,100,0.0,CA,1691530080
479,pizarro,4.9533,-77.366,27.92,79,100,3.13,CO,1691530476
480,andalgala,-27.5819,-66.3165,12.18,34,0,1.64,AR,1691530476
481,jackson,42.4165,-122.8345,33.75,30,0,0.89,US,1691530244
482,el fuerte,26.4189,-108.6194,39.31,35,0,5.79,MX,1691530477
483,novo aripuana,-5.1206,-60.3797,31.88,41,87,0.83,BR,1691530477
484,uturoa,-16.7333,-151.4333,26.01,77,99,3.07,PF,1691530477
485,khonsa,27.0167,95.5667,20.87,98,94,1.05,IN,1691530477
486,parkano,62.0167,23.0167,13.35,84,27,5.33,FI,1691530478
487,las heras,-46.5419,-68.9359,9.36,46,96,11.28,AR,1691530300
488,klaksvik,62.2266,-6.589,8.51,85,100,13.54,FO,1691530478
489,beya,53.0533,90.9139,17.67,68,100,2.48,RU,1691530478
490,mahibadhoo,3.7833,72.9667,27.18,79,66,3.63,MV,1691530479
491,ondjiva,-17.0667,15.7333,21.02,24,11,3.6,AO,1691530479
492,kralendijk,12.15,-68.2667,31.99,70,20,8.23,BQ,1691530479
493,reggane,26.7158,0.1714,37.48,12,0,5.52,DZ,1691530480
494,mili,6.0815,171.735,28.14,77,96,5.77,MH,1691530480
495,al mijlad,11.0333,27.7333,23.92,81,100,7.22,SD,1691530480
496,tchintabaraden,15.8969,5.7985,29.79,54,100,2.53,NE,1691530480
497,labrador city,52.9463,-66.9114,17.95,52,100,5.14,CA,1691530481
498,dawei,14.0833,98.2,24.74,94,100,1.4,MM,1691530481
499,kandi,11.1342,2.9386,23.62,91,100,1.76,BJ,1691530481
500,tanda,26.55,82.65,26.22,88,100,1.78,IN,1691530481
501,rice lake,45.5061,-91.7382,28.92,49,0,4.12,US,1691530197
502,keren,15.7778,38.4581,20.97,87,90,1.38,ER,1691530482
503,bereket,39.2446,55.5154,29.42,23,0,2.08,TM,1691530482
504,dauphin,51.1494,-100.0502,23.08,43,40,5.14,CA,1691530482
505,zuwarah,32.9312,12.082,24.26,64,0,2.34,LY,1691530483
506,spring creek,40.7266,-115.5859,26.83,21,12,6.37,US,1691530483
507,mudu,31.252,120.5118,24.27,86,8,2.6,CN,1691530484
508,saint-francois,46.4154,3.9054,17.69,63,0,0.0,FR,1691530484
509,llorente,11.4119,125.5458,26.7,83,100,2.15,PH,1691530484
510,witu,-2.3889,40.4382,24.09,83,13,6.33,KE,1691530485
511,bodaybo,57.8506,114.1933,17.91,73,5,1.13,RU,1691530485
512,alice springs,-23.7,133.8833,7.75,66,0,2.57,AU,1691530291
513,yeraliyev,43.2,51.65,28.22,46,0,3.84,KZ,1691530486
514,miracema do tocantins,-9.5618,-48.3967,30.73,28,0,1.46,BR,1691530486
515,konosha,60.9736,40.257,14.54,84,0,2.67,RU,1691530486
516,karaton,-6.3424,106.1045,22.42,94,20,0.48,ID,1691530487
517,takoradi,4.8845,-1.7554,24.4,88,95,5.76,GH,1691530487
518,goba,7.0167,39.9833,9.73,90,50,2.16,ET,1691530487
519,pionerskiy,54.9508,20.2275,12.91,85,100,7.5,RU,1691530487
520,novyy urengoy,66.0833,76.6333,11.4,83,100,6.26,RU,1691530488
521,brisas de zicatela,15.8369,-97.0419,32.29,55,20,4.12,MX,1691530488
522,santa marta,11.2408,-74.199,32.03,71,20,6.17,CO,1691530195
523,sainte-suzanne,-20.9061,55.6089,21.1,73,40,5.66,RE,1691530488
524,vernon,50.2581,-119.2691,28.5,36,100,1.03,CA,1691530229
525,idri,27.5,13.2667,30.0,24,0,4.9,LY,1691530489
526,fisterra,42.9049,-9.2629,21.53,71,0,3.68,ES,1691530489
527,idku,31.3078,30.299,25.93,71,0,4.07,EG,1691530489
528,tres cantos,40.6108,-3.7074,34.15,27,0,1.54,ES,1691530489
529,nova vicosa,-17.8919,-39.3719,22.63,87,0,2.86,BR,1691530471
530,kampot,10.6167,104.1833,28.03,87,72,2.62,KH,1691530490
531,flying fish cove,-10.4217,105.6791,23.82,94,100,5.14,CX,1691530490
532,gutierrez zamora,20.45,-97.0833,35.9,63,29,6.8,MX,1691530449
533,makarov,48.6333,142.8,15.15,87,100,3.91,RU,1691530491
534,maintirano,-18.0667,44.0167,22.22,78,1,5.27,MG,1691530491
535,tocopilla,-22.092,-70.1979,20.42,68,19,5.66,CL,1691530492
536,north bend,43.4065,-124.2243,29.02,64,0,9.77,US,1691530492
537,malabar,-33.9667,151.25,12.05,81,40,2.57,AU,1691530492
538,illizi,26.4833,8.4667,35.89,20,20,8.67,DZ,1691530493
539,nagqu,31.5,92.0,4.22,88,67,1.56,CN,1691530493
540,dolzhanskaya,46.6311,37.8039,26.86,66,73,5.27,RU,1691530493
541,prince albert,53.2001,-105.7677,17.97,55,40,3.09,CA,1691530205
542,likasi,-10.9814,26.7333,16.92,39,2,0.84,CD,1691530494
543,williston,48.147,-103.618,28.78,35,51,1.79,US,1691530494
544,oneonta,42.4529,-75.0638,19.06,68,100,4.66,US,1691530322
545,amga,60.8953,131.9608,14.41,59,72,3.04,RU,1691530494
546,chiroqchi,39.0336,66.5722,25.18,27,0,1.48,UZ,1691530495
547,skowhegan,44.7651,-69.7192,20.39,99,100,2.95,US,1691530233
548,p'ot'i,42.1462,41.672,24.88,87,6,1.07,GE,1691530495
549,dawson creek,55.7666,-120.2362,17.8,82,100,2.57,CA,1691530495
550,la junta,37.985,-103.5438,33.16,29,0,6.69,US,1691530496
551,susuman,62.7833,148.1667,8.58,55,95,0.26,RU,1691530496
552,kone,-21.0595,164.8658,20.27,59,5,3.33,NC,1691530496
553,sedalia,38.7045,-93.2283,30.84,54,75,2.64,US,1691530496
554,brokopondo,4.75,-55.1667,29.16,71,90,3.17,SR,1691530496
555,ingeniero jacobacci,-41.3427,-69.5448,8.48,56,100,3.0,AR,1691530497
556,seven pagodas,12.6264,80.1722,29.03,72,100,5.02,IN,1691530497
557,archangelos,36.2149,28.1149,27.39,79,0,3.97,GR,1691530497
558,ternate,0.8,127.4,26.56,80,90,4.19,ID,1691530498
559,gunjur,13.2019,-16.7339,28.04,74,75,2.06,GM,1691530498
560,kerch,45.3583,36.4758,25.45,66,3,6.53,UA,1691530499
